state,district,cluster_label,total_bio,ratio_5_17,ratio_17_plus,key_insight,recommendation,lat,lng,growth_factor,predicted_load,alert_status,recommendation_engine
Andaman & Nicobar Islands,Andamans,Low Load,272,0.1029411764705882,0.8970588235294118,"Adult population dominates biometric authentication, indicating strong dependency on DBT and banking services.",Low biometric authentication load observed. Recommended actions: maintain current infrastructure and continue monitoring.,11.964766771528762,92.21535634079895,1.1249080237694726,305,Normal,Stable: Monitor weekly.
Andaman & Nicobar Islands,Nicobars,Low Load,1,1.0,0.0,High biometric usage among children suggests dependency on education and child welfare schemes.,Low biometric authentication load observed. Recommended actions: maintain current infrastructure and continue monitoring.,11.55529033783061,92.68949129237534,1.2401428612819831,1,Normal,Stable: Monitor weekly.
Andaman & Nicobar Islands,South Andaman,Low Load,7,0.0,1.0,"Adult population dominates biometric authentication, indicating strong dependency on DBT and banking services.",Low biometric authentication load observed. Recommended actions: maintain current infrastructure and continue monitoring.,12.030723164838964,92.46875250293208,1.196398788362281,8,Normal,Stable: Monitor weekly.
Andaman And Nicobar Islands,Nicobar,Low Load,279,0.6379928315412187,0.3620071684587813,High biometric usage among children suggests dependency on education and child welfare schemes.,Low biometric authentication load observed. Recommended actions: maintain current infrastructure and continue monitoring.,21.597131011496074,82.04782198588948,1.1697316968394074,326,Normal,Stable: Monitor weekly.
Andaman And Nicobar Islands,North And Middle Andaman,Low Load,819,0.5738705738705738,0.4261294261294261,High biometric usage among children suggests dependency on education and child welfare schemes.,Low biometric authentication load observed. Recommended actions: maintain current infrastructure and continue monitoring.,21.516905505458435,76.82367579802906,1.0812037280884874,885,Normal,Stable: Monitor weekly.
Andaman And Nicobar Islands,South Andaman,Low Load,1399,0.677626876340243,0.3223731236597569,High biometric usage among children suggests dependency on education and child welfare schemes.,Low biometric authentication load observed. Recommended actions: maintain current infrastructure and continue monitoring.,16.785206252452305,81.92079099120744,1.0811989040672405,1512,Normal,Stable: Monitor weekly.
Andhra Pradesh,Adilabad,Medium Load,5672,0.1789492242595204,0.8210507757404796,"Adult population dominates biometric authentication, indicating strong dependency on DBT and banking services.",Moderate biometric load observed. Recommended actions: monitor trends closely and optimize existing resources.,13.516347054251936,81.61350836342099,1.06161672243364,6021,Normal,Stable: Monitor weekly.
Andhra Pradesh,Alluri Sitharama Raju,Low Load,2140,0.305607476635514,0.694392523364486,Balanced biometric usage across age groups.,Low biometric authentication load observed. Recommended actions: maintain current infrastructure and continue monitoring.,16.05468567013606,81.93533849256448,1.223235229154987,2617,Normal,Stable: Monitor weekly.
Andhra Pradesh,Anakapalli,Low Load,954,0.5524109014675053,0.4475890985324947,High biometric usage among children suggests dependency on education and child welfare schemes.,Low biometric authentication load observed. Recommended actions: maintain current infrastructure and continue monitoring.,17.40391617886833,82.22967055266668,1.1702230023486417,1116,Normal,Stable: Monitor weekly.
Andhra Pradesh,Anantapur,High Load,10002,0.3416316736652669,0.6583683263347331,Balanced biometric usage across age groups.,"High biometric authentication pressure detected. Recommended actions: increase Aadhaar authentication infrastructure, deploy additional servers, and optimize load distribution.",15.163559077258551,81.07594144465563,1.191614515559209,11918,Normal,Stable: Monitor weekly.
Andhra Pradesh,Ananthapur,High Load,13938,0.8410101879753192,0.1589898120246807,High biometric usage among children suggests dependency on education and child welfare schemes.,"High biometric authentication pressure detected. Recommended actions: increase Aadhaar authentication infrastructure, deploy additional servers, and optimize load distribution.",15.41965456804621,79.63937810151954,1.0541168988591605,14692,Normal,Stable: Monitor weekly.
Andhra Pradesh,Ananthapuramu,High Load,16153,0.8707979941806475,0.1292020058193524,High biometric usage among children suggests dependency on education and child welfare schemes.,"High biometric authentication pressure detected. Recommended actions: increase Aadhaar authentication infrastructure, deploy additional servers, and optimize load distribution.",16.547527316091852,81.60838557093169,1.2439819704323989,20094,High Risk,CRITICAL: Deploy 20 additional mobile units.
Andhra Pradesh,Annamayya,Medium Load,1154,0.5441941074523396,0.4558058925476603,High biometric usage among children suggests dependency on education and child welfare schemes.,Moderate biometric load observed. Recommended actions: monitor trends closely and optimize existing resources.,18.330417345996477,81.08136706932258,1.2164885281600843,1403,Normal,Stable: Monitor weekly.
Andhra Pradesh,Bapatla,Medium Load,894,0.540268456375839,0.4597315436241611,High biometric usage among children suggests dependency on education and child welfare schemes.,Moderate biometric load observed. Recommended actions: monitor trends closely and optimize existing resources.,15.49883391083667,79.34678501138535,1.0924678221356552,976,Normal,Stable: Monitor weekly.
Andhra Pradesh,Chittoor,High Load,28193,0.6659454474514951,0.3340545525485049,High biometric usage among children suggests dependency on education and child welfare schemes.,"High biometric authentication pressure detected. Recommended actions: increase Aadhaar authentication infrastructure, deploy additional servers, and optimize load distribution.",17.097911507944456,78.4338857288415,1.0863649934414201,30627,High Risk,CRITICAL: Deploy 30 additional mobile units.
Andhra Pradesh,Cuddapah,High Load,16826,0.689587543088078,0.310412456911922,High biometric usage among children suggests dependency on education and child welfare schemes.,"High biometric authentication pressure detected. Recommended actions: increase Aadhaar authentication infrastructure, deploy additional servers, and optimize load distribution.",13.962370565656974,79.01311078820387,1.086680901970687,18284,High Risk,CRITICAL: Deploy 18 additional mobile units.
Andhra Pradesh,Dr. B. R. Ambedkar Konaseema,Medium Load,1076,0.5148698884758365,0.4851301115241636,High biometric usage among children suggests dependency on education and child welfare schemes.,Moderate biometric load observed. Recommended actions: monitor trends closely and optimize existing resources.,14.84619495827041,78.72154060227994,1.1108484485919077,1195,Normal,Stable: Monitor weekly.
Andhra Pradesh,East Godavari,High Load,30115,0.6131495932259671,0.3868504067740329,High biometric usage among children suggests dependency on education and child welfare schemes.,"High biometric authentication pressure detected. Recommended actions: increase Aadhaar authentication infrastructure, deploy additional servers, and optimize load distribution.",14.57803875524955,77.4504659481818,1.1549512863264475,34781,High Risk,CRITICAL: Deploy 34 additional mobile units.
Andhra Pradesh,Eluru,Medium Load,1392,0.4489942528735632,0.5510057471264368,High biometric usage among children suggests dependency on education and child welfare schemes.,Moderate biometric load observed. Recommended actions: monitor trends closely and optimize existing resources.,13.499369673667069,82.17861194868016,1.1363890037284232,1581,Normal,Stable: Monitor weekly.
Andhra Pradesh,Guntur,High Load,31262,0.6287825475017593,0.3712174524982407,High biometric usage among children suggests dependency on education and child welfare schemes.,"High biometric authentication pressure detected. Recommended actions: increase Aadhaar authentication infrastructure, deploy additional servers, and optimize load distribution.",15.548865668679312,79.1616332357984,1.1082458280396084,34645,High Risk,CRITICAL: Deploy 34 additional mobile units.
Andhra Pradesh,Hyderabad,Medium Load,12333,0.1742479526473688,0.8257520473526312,"Adult population dominates biometric authentication, indicating strong dependency on DBT and banking services.",Moderate biometric load observed. Recommended actions: monitor trends closely and optimize existing resources.,16.808236413465348,78.33126943932531,1.1723705789444758,14458,Normal,Stable: Monitor weekly.
Andhra Pradesh,K.V. Rangareddy,Medium Load,77,0.4935064935064935,0.5064935064935064,High biometric usage among children suggests dependency on education and child welfare schemes.,Moderate biometric load observed. Recommended actions: monitor trends closely and optimize existing resources.,18.15980591975113,81.17172507207775,1.0778987721304083,82,Normal,Stable: Monitor weekly.
Andhra Pradesh,K.V.Rangareddy,Medium Load,91,0.2857142857142857,0.7142857142857143,"Adult population dominates biometric authentication, indicating strong dependency on DBT and banking services.",Moderate biometric load observed. Recommended actions: monitor trends closely and optimize existing resources.,13.857055011561297,79.32790387892463,1.1084289297070438,100,Normal,Stable: Monitor weekly.
Andhra Pradesh,Kakinada,Low Load,1167,0.493573264781491,0.506426735218509,High biometric usage among children suggests dependency on education and child welfare schemes.,Low biometric authentication load observed. Recommended actions: maintain current infrastructure and continue monitoring.,17.805591537810823,81.96366011145705,1.1232723686587383,1310,Normal,Stable: Monitor weekly.
Andhra Pradesh,Karim Nagar,Medium Load,249,0.2128514056224899,0.7871485943775101,"Adult population dominates biometric authentication, indicating strong dependency on DBT and banking services.",Moderate biometric load observed. Recommended actions: monitor trends closely and optimize existing resources.,15.747007556249349,80.30705694605354,1.1412139968434072,284,Normal,Stable: Monitor weekly.
Andhra Pradesh,Karimnagar,Medium Load,2358,0.2217981340118744,0.7782018659881256,"Adult population dominates biometric authentication, indicating strong dependency on DBT and banking services.",Moderate biometric load observed. Recommended actions: monitor trends closely and optimize existing resources.,14.245169730460375,82.19584313068488,1.2070351922786027,2846,Normal,Stable: Monitor weekly.
Andhra Pradesh,Khammam,Medium Load,4324,0.2789084181313598,0.7210915818686402,"Adult population dominates biometric authentication, indicating strong dependency on DBT and banking services.",Moderate biometric load observed. Recommended actions: monitor trends closely and optimize existing resources.,14.568358506917217,81.95365887067562,1.089934756431672,4712,Normal,Stable: Monitor weekly.
Andhra Pradesh,Krishna,High Load,26706,0.6297461244664121,0.3702538755335879,High biometric usage among children suggests dependency on education and child welfare schemes.,"High biometric authentication pressure detected. Recommended actions: increase Aadhaar authentication infrastructure, deploy additional servers, and optimize load distribution.",16.658233244961842,80.27868397439428,1.1528468876827223,30787,High Risk,CRITICAL: Deploy 30 additional mobile units.
Andhra Pradesh,Kurnool,High Load,38359,0.7232722438019761,0.2767277561980239,High biometric usage among children suggests dependency on education and child welfare schemes.,"High biometric authentication pressure detected. Recommended actions: increase Aadhaar authentication infrastructure, deploy additional servers, and optimize load distribution.",15.973442555082542,78.39334905858878,1.1684829137724084,44821,High Risk,CRITICAL: Deploy 44 additional mobile units.
Andhra Pradesh,Mahabub Nagar,Medium Load,734,0.103542234332425,0.896457765667575,"Adult population dominates biometric authentication, indicating strong dependency on DBT and banking services.",Moderate biometric load observed. Recommended actions: monitor trends closely and optimize existing resources.,14.292640160027542,78.34243104535088,1.0592900825439995,777,Normal,Stable: Monitor weekly.
Andhra Pradesh,Mahabubnagar,Low Load,42,0.2142857142857142,0.7857142857142857,"Adult population dominates biometric authentication, indicating strong dependency on DBT and banking services.",Low biometric authentication load observed. Recommended actions: maintain current infrastructure and continue monitoring.,14.342191310721272,81.13792236783377,1.1715089703802877,49,Normal,Stable: Monitor weekly.
Andhra Pradesh,Mahbubnagar,Medium Load,1572,0.1844783715012722,0.8155216284987278,"Adult population dominates biometric authentication, indicating strong dependency on DBT and banking services.",Moderate biometric load observed. Recommended actions: monitor trends closely and optimize existing resources.,15.160626295833652,77.52921338281698,1.0841048247374583,1704,Normal,Stable: Monitor weekly.
Andhra Pradesh,Medak,Medium Load,2642,0.220666161998486,0.779333838001514,"Adult population dominates biometric authentication, indicating strong dependency on DBT and banking services.",Moderate biometric load observed. Recommended actions: monitor trends closely and optimize existing resources.,18.255513150704058,81.65892942481712,1.0630103185970559,2808,Normal,Stable: Monitor weekly.
Andhra Pradesh,N. T. R,Low Load,1463,0.3636363636363636,0.6363636363636364,Balanced biometric usage across age groups.,Low biometric authentication load observed. Recommended actions: maintain current infrastructure and continue monitoring.,18.048761415976067,82.21453911323218,1.2397771074506667,1813,Normal,Stable: Monitor weekly.
Andhra Pradesh,Nalgonda,Medium Load,3282,0.1505179768433882,0.8494820231566118,"Adult population dominates biometric authentication, indicating strong dependency on DBT and banking services.",Moderate biometric load observed. Recommended actions: monitor trends closely and optimize existing resources.,14.279476246097436,79.22121009451328,1.243126406614912,4079,Normal,Stable: Monitor weekly.
Andhra Pradesh,Nandyal,Medium Load,1384,0.5679190751445087,0.4320809248554913,High biometric usage among children suggests dependency on education and child welfare schemes.,Moderate biometric load observed. Recommended actions: monitor trends closely and optimize existing resources.,17.201192378520457,80.72010309026895,1.2116794696232922,1676,Normal,Stable: Monitor weekly.
Andhra Pradesh,Nellore,High Load,11666,0.4606548945654037,0.5393451054345962,High biometric usage among children suggests dependency on education and child welfare schemes.,"High biometric authentication pressure detected. Recommended actions: increase Aadhaar authentication infrastructure, deploy additional servers, and optimize load distribution.",14.179479531699275,81.31916562495309,1.1109227538346742,12960,Normal,Stable: Monitor weekly.
Andhra Pradesh,Nizamabad,Medium Load,1234,0.2658022690437601,0.7341977309562399,"Adult population dominates biometric authentication, indicating strong dependency on DBT and banking services.",Moderate biometric load observed. Recommended actions: monitor trends closely and optimize existing resources.,14.532202859183304,78.35908807411312,1.0695344228012769,1319,Normal,Stable: Monitor weekly.
Andhra Pradesh,Palnadu,Low Load,1306,0.5719754977029097,0.4280245022970903,High biometric usage among children suggests dependency on education and child welfare schemes.,Low biometric authentication load observed. Recommended actions: maintain current infrastructure and continue monitoring.,16.09487211446707,80.20469967420851,1.1868466053024314,1550,Normal,Stable: Monitor weekly.
Andhra Pradesh,Parvathipuram Manyam,Low Load,1137,0.4678979771328056,0.5321020228671943,High biometric usage among children suggests dependency on education and child welfare schemes.,Low biometric authentication load observed. Recommended actions: maintain current infrastructure and continue monitoring.,16.310431039189055,77.69743418698877,1.1380304987479204,1293,Normal,Stable: Monitor weekly.
Andhra Pradesh,Prakasam,High Load,19234,0.6234792554850785,0.3765207445149215,High biometric usage among children suggests dependency on education and child welfare schemes.,"High biometric authentication pressure detected. Recommended actions: increase Aadhaar authentication infrastructure, deploy additional servers, and optimize load distribution.",17.7973043131519,78.56800021294353,1.0744076469689559,20665,High Risk,CRITICAL: Deploy 20 additional mobile units.
Andhra Pradesh,Rangareddi,Medium Load,6925,0.1842599277978339,0.815740072202166,"Adult population dominates biometric authentication, indicating strong dependency on DBT and banking services.",Moderate biometric load observed. Recommended actions: monitor trends closely and optimize existing resources.,14.057574606414022,81.68374039934488,1.149035382022254,7957,Normal,Stable: Monitor weekly.
Andhra Pradesh,Sri Potti Sriramulu Nellore,Medium Load,1451,0.5720192970365265,0.4279807029634734,High biometric usage among children suggests dependency on education and child welfare schemes.,Moderate biometric load observed. Recommended actions: monitor trends closely and optimize existing resources.,18.188257491148768,81.55063808632725,1.0568777042230437,1533,Normal,Stable: Monitor weekly.
Andhra Pradesh,Sri Sathya Sai,Medium Load,1711,0.5949736995908825,0.4050263004091174,High biometric usage among children suggests dependency on education and child welfare schemes.,Moderate biometric load observed. Recommended actions: monitor trends closely and optimize existing resources.,17.45758037362439,80.5162099031951,1.2318640804157563,2107,Normal,Stable: Monitor weekly.
Andhra Pradesh,Srikakulam,High Load,29982,0.7665932893069175,0.2334067106930825,High biometric usage among children suggests dependency on education and child welfare schemes.,"High biometric authentication pressure detected. Recommended actions: increase Aadhaar authentication infrastructure, deploy additional servers, and optimize load distribution.",16.164286853045695,77.67493379955704,1.1017559963200034,33032,High Risk,CRITICAL: Deploy 33 additional mobile units.
Andhra Pradesh,Tirupati,Medium Load,1554,0.4948519948519948,0.5051480051480052,High biometric usage among children suggests dependency on education and child welfare schemes.,Moderate biometric load observed. Recommended actions: monitor trends closely and optimize existing resources.,15.452266065353493,79.10344258506157,1.1825044568707965,1837,Normal,Stable: Monitor weekly.
Andhra Pradesh,Visakhapatnam,High Load,36998,0.5906265203524514,0.4093734796475485,High biometric usage among children suggests dependency on education and child welfare schemes.,"High biometric authentication pressure detected. Recommended actions: increase Aadhaar authentication infrastructure, deploy additional servers, and optimize load distribution.",14.708768918801631,80.85710056844292,1.1123422152178821,41154,High Risk,CRITICAL: Deploy 41 additional mobile units.
Andhra Pradesh,Vizianagaram,High Load,18508,0.648476334558029,0.351523665441971,High biometric usage among children suggests dependency on education and child welfare schemes.,"High biometric authentication pressure detected. Recommended actions: increase Aadhaar authentication infrastructure, deploy additional servers, and optimize load distribution.",15.889378675393854,77.64523107953823,1.1540136042355622,21358,High Risk,CRITICAL: Deploy 21 additional mobile units.
Andhra Pradesh,Warangal,Medium Load,5595,0.233958891867739,0.7660411081322609,"Adult population dominates biometric authentication, indicating strong dependency on DBT and banking services.",Moderate biometric load observed. Recommended actions: monitor trends closely and optimize existing resources.,14.510916009749057,80.65629381829797,1.159342055868656,6486,Normal,Stable: Monitor weekly.
Andhra Pradesh,West Godavari,High Load,25341,0.6182076476855688,0.3817923523144311,High biometric usage among children suggests dependency on education and child welfare schemes.,"High biometric authentication pressure detected. Recommended actions: increase Aadhaar authentication infrastructure, deploy additional servers, and optimize load distribution.",13.790654297451502,81.49603457024384,1.0869708911051055,27544,High Risk,CRITICAL: Deploy 27 additional mobile units.
Andhra Pradesh,Y. S. R,Medium Load,1051,0.5299714557564225,0.4700285442435775,High biometric usage among children suggests dependency on education and child welfare schemes.,Moderate biometric load observed. Recommended actions: monitor trends closely and optimize existing resources.,15.885732635069871,79.64293288663323,1.2439169255529117,1307,Normal,Stable: Monitor weekly.
Arunachal Pradesh,Anjaw,Low Load,134,0.4104477611940298,0.5895522388059702,High biometric usage among children suggests dependency on education and child welfare schemes.,Low biometric authentication load observed. Recommended actions: maintain current infrastructure and continue monitoring.,28.487223353978553,95.69404289777545,1.205026564672223,161,Normal,Stable: Monitor weekly.
Arunachal Pradesh,Changlang,Low Load,823,0.5880923450789793,0.4119076549210206,High biometric usage among children suggests dependency on education and child welfare schemes.,Low biometric authentication load observed. Recommended actions: maintain current infrastructure and continue monitoring.,27.75342762370658,95.25404845767719,1.2378997883128378,1018,Normal,Stable: Monitor weekly.
Arunachal Pradesh,Dibang Valley,Low Load,57,0.2807017543859649,0.7192982456140351,"Adult population dominates biometric authentication, indicating strong dependency on DBT and banking services.",Low biometric authentication load observed. Recommended actions: maintain current infrastructure and continue monitoring.,28.407195891987374,94.02108481050826,1.2289654700855297,70,Normal,Stable: Monitor weekly.
Arunachal Pradesh,East Kameng,Low Load,459,0.4335511982570806,0.5664488017429193,High biometric usage among children suggests dependency on education and child welfare schemes.,Low biometric authentication load observed. Recommended actions: maintain current infrastructure and continue monitoring.,29.345889959065474,95.61227806482079,1.169579995762217,536,Normal,Stable: Monitor weekly.
Arunachal Pradesh,East Siang,Low Load,266,0.5075187969924813,0.4924812030075188,High biometric usage among children suggests dependency on education and child welfare schemes.,Low biometric authentication load observed. Recommended actions: maintain current infrastructure and continue monitoring.,28.685355503975277,95.77174518728272,1.2343748470046234,328,Normal,Stable: Monitor weekly.
Arunachal Pradesh,Kamle,Low Load,25,0.4,0.6,Balanced biometric usage across age groups.,Low biometric authentication load observed. Recommended actions: maintain current infrastructure and continue monitoring.,29.311882602879408,95.34508893014511,1.0676985004103838,26,Normal,Stable: Monitor weekly.
Arunachal Pradesh,Kra Daadi,Low Load,197,0.3807106598984771,0.6192893401015228,Balanced biometric usage across age groups.,Low biometric authentication load observed. Recommended actions: maintain current infrastructure and continue monitoring.,29.221039985091018,95.31241438500786,1.089196572483829,214,Normal,Stable: Monitor weekly.
Arunachal Pradesh,Kurung Kumey,Low Load,629,0.1478537360890302,0.8521462639109698,"Adult population dominates biometric authentication, indicating strong dependency on DBT and banking services.",Low biometric authentication load observed. Recommended actions: maintain current infrastructure and continue monitoring.,28.7504223152809,95.07583413464555,1.0590454577821076,666,Normal,Stable: Monitor weekly.
Arunachal Pradesh,Leparada,Low Load,1,1.0,0.0,High biometric usage among children suggests dependency on education and child welfare schemes.,Low biometric authentication load observed. Recommended actions: maintain current infrastructure and continue monitoring.,28.968149918672925,93.69581531587922,1.1150660661526528,1,Normal,Stable: Monitor weekly.
Arunachal Pradesh,Lohit,Low Load,507,0.2426035502958579,0.757396449704142,"Adult population dominates biometric authentication, indicating strong dependency on DBT and banking services.",Low biometric authentication load observed. Recommended actions: maintain current infrastructure and continue monitoring.,29.352612277596787,95.8355305832357,1.1277354579378964,571,Normal,Stable: Monitor weekly.
Arunachal Pradesh,Longding,Low Load,290,0.506896551724138,0.493103448275862,High biometric usage among children suggests dependency on education and child welfare schemes.,Low biometric authentication load observed. Recommended actions: maintain current infrastructure and continue monitoring.,26.79774184910368,95.69745025169429,1.1042698063547791,320,Normal,Stable: Monitor weekly.
Arunachal Pradesh,Lower Dibang Valley,Low Load,197,0.4060913705583756,0.5939086294416244,High biometric usage among children suggests dependency on education and child welfare schemes.,Low biometric authentication load observed. Recommended actions: maintain current infrastructure and continue monitoring.,27.096609602420337,94.22535656277742,1.2157475018303858,239,Normal,Stable: Monitor weekly.
Arunachal Pradesh,Lower Siang,Low Load,39,0.6923076923076923,0.3076923076923077,High biometric usage among children suggests dependency on education and child welfare schemes.,Low biometric authentication load observed. Recommended actions: maintain current infrastructure and continue monitoring.,28.940524768874823,93.70227968814493,1.121350665338718,43,Normal,Stable: Monitor weekly.
Arunachal Pradesh,Lower Subansiri,Low Load,248,0.3911290322580645,0.6088709677419355,Balanced biometric usage across age groups.,Low biometric authentication load observed. Recommended actions: maintain current infrastructure and continue monitoring.,29.163901072357188,95.71640253387322,1.1061869019374762,274,Normal,Stable: Monitor weekly.
Arunachal Pradesh,Namsai,Low Load,487,0.4373716632443531,0.5626283367556468,High biometric usage among children suggests dependency on education and child welfare schemes.,Low biometric authentication load observed. Recommended actions: maintain current infrastructure and continue monitoring.,28.23240320128251,93.2391576151505,1.1585392166316497,564,Normal,Stable: Monitor weekly.
Arunachal Pradesh,Pakke Kessang,Low Load,18,0.6666666666666666,0.3333333333333333,High biometric usage among children suggests dependency on education and child welfare schemes.,Low biometric authentication load observed. Recommended actions: maintain current infrastructure and continue monitoring.,27.57111439952474,95.07078075512723,1.0781848449949525,19,Normal,Stable: Monitor weekly.
Arunachal Pradesh,Papum Pare,Low Load,1064,0.3261278195488721,0.6738721804511278,Balanced biometric usage across age groups.,Low biometric authentication load observed. Recommended actions: maintain current infrastructure and continue monitoring.,29.653558534082272,95.11544058105001,1.210439396150808,1287,Normal,Stable: Monitor weekly.
Arunachal Pradesh,Shi-Yomi,Low Load,27,0.5555555555555556,0.4444444444444444,High biometric usage among children suggests dependency on education and child welfare schemes.,Low biometric authentication load observed. Recommended actions: maintain current infrastructure and continue monitoring.,27.48941074319248,95.12201710929884,1.0649101287359541,28,Normal,Stable: Monitor weekly.
Arunachal Pradesh,Siang,Low Load,117,0.4615384615384615,0.5384615384615384,High biometric usage among children suggests dependency on education and child welfare schemes.,Low biometric authentication load observed. Recommended actions: maintain current infrastructure and continue monitoring.,28.32995613914757,95.55953618545342,1.2473773873201035,145,Normal,Stable: Monitor weekly.
Arunachal Pradesh,Tawang,Low Load,198,0.6060606060606061,0.3939393939393939,High biometric usage among children suggests dependency on education and child welfare schemes.,Low biometric authentication load observed. Recommended actions: maintain current infrastructure and continue monitoring.,27.030941916480877,95.50308370750608,1.2044489538593315,238,Normal,Stable: Monitor weekly.
Arunachal Pradesh,Tirap,Low Load,180,0.5611111111111111,0.4388888888888889,High biometric usage among children suggests dependency on education and child welfare schemes.,Low biometric authentication load observed. Recommended actions: maintain current infrastructure and continue monitoring.,28.333799736028332,96.10897601157698,1.0897431363068346,196,Normal,Stable: Monitor weekly.
Arunachal Pradesh,Upper Siang,Low Load,127,0.4251968503937008,0.5748031496062992,High biometric usage among children suggests dependency on education and child welfare schemes.,Low biometric authentication load observed. Recommended actions: maintain current infrastructure and continue monitoring.,27.73561649811606,95.11786567940185,1.0511044234247204,133,Normal,Stable: Monitor weekly.
Arunachal Pradesh,Upper Subansiri,Low Load,559,0.3881932021466905,0.6118067978533095,Balanced biometric usage across age groups.,Low biometric authentication load observed. Recommended actions: maintain current infrastructure and continue monitoring.,29.506084316530053,93.52752918397204,1.213092285690967,678,Normal,Stable: Monitor weekly.
Arunachal Pradesh,West Kameng,Low Load,613,0.3066884176182708,0.6933115823817292,Balanced biometric usage across age groups.,Low biometric authentication load observed. Recommended actions: maintain current infrastructure and continue monitoring.,29.521685461709353,95.28365716690244,1.1913714687695234,730,Normal,Stable: Monitor weekly.
Arunachal Pradesh,West Siang,Low Load,389,0.5475578406169666,0.4524421593830334,High biometric usage among children suggests dependency on education and child welfare schemes.,Low biometric authentication load observed. Recommended actions: maintain current infrastructure and continue monitoring.,26.913511177315517,94.12289070084044,1.1958014336081975,465,Normal,Stable: Monitor weekly.
Assam,Bajali,Low Load,9,0.2222222222222222,0.7777777777777778,"Adult population dominates biometric authentication, indicating strong dependency on DBT and banking services.",Low biometric authentication load observed. Recommended actions: maintain current infrastructure and continue monitoring.,26.824516265935845,91.63205180440632,1.204254069337189,10,Normal,Stable: Monitor weekly.
Assam,Baksa,Low Load,1868,0.7178800856531049,0.2821199143468951,High biometric usage among children suggests dependency on education and child welfare schemes.,Low biometric authentication load observed. Recommended actions: maintain current infrastructure and continue monitoring.,26.44651138052882,92.46764917085888,1.064808930346818,1989,Normal,Stable: Monitor weekly.
Assam,Barpeta,Medium Load,10808,0.8098630643967432,0.1901369356032568,High biometric usage among children suggests dependency on education and child welfare schemes.,Moderate biometric load observed. Recommended actions: monitor trends closely and optimize existing resources.,26.562746553302432,91.56722610143754,1.1216931457088546,12123,Normal,Stable: Monitor weekly.
Assam,Biswanath,Low Load,846,0.6252955082742316,0.3747044917257683,High biometric usage among children suggests dependency on education and child welfare schemes.,Low biometric authentication load observed. Recommended actions: maintain current infrastructure and continue monitoring.,27.31461041845713,94.3504669075322,1.073173811905026,907,Normal,Stable: Monitor weekly.
Assam,Bongaigaon,Low Load,4185,0.7201911589008363,0.2798088410991636,High biometric usage among children suggests dependency on education and child welfare schemes.,Low biometric authentication load observed. Recommended actions: maintain current infrastructure and continue monitoring.,27.606633565857074,93.67895549522878,1.2226206851751187,5116,Normal,Stable: Monitor weekly.
Assam,Cachar,Medium Load,4523,0.4903824894981207,0.5096175105018793,High biometric usage among children suggests dependency on education and child welfare schemes.,Moderate biometric load observed. Recommended actions: monitor trends closely and optimize existing resources.,25.090258720391894,93.70478958778708,1.1746596253655115,5312,Normal,Stable: Monitor weekly.
Assam,Charaideo,Low Load,621,0.6747181964573269,0.3252818035426731,High biometric usage among children suggests dependency on education and child welfare schemes.,Low biometric authentication load observed. Recommended actions: maintain current infrastructure and continue monitoring.,24.773760749376404,91.496370654587,1.11617960497053,693,Normal,Stable: Monitor weekly.
Assam,Chirang,Low Load,2295,0.7032679738562092,0.2967320261437908,High biometric usage among children suggests dependency on education and child welfare schemes.,Low biometric authentication load observed. Recommended actions: maintain current infrastructure and continue monitoring.,25.670830657448622,92.895929571214,1.0627116700572048,2438,Normal,Stable: Monitor weekly.
Assam,Darrang,Low Load,1610,0.4142857142857143,0.5857142857142857,High biometric usage among children suggests dependency on education and child welfare schemes.,Low biometric authentication load observed. Recommended actions: maintain current infrastructure and continue monitoring.,27.01122225342338,93.47988612981952,1.1121964643431326,1790,Normal,Stable: Monitor weekly.
Assam,Dhemaji,Low Load,2462,0.6592201462225833,0.3407798537774167,High biometric usage among children suggests dependency on education and child welfare schemes.,Low biometric authentication load observed. Recommended actions: maintain current infrastructure and continue monitoring.,26.037708119130244,92.25087999884501,1.1150366644053495,2745,Normal,Stable: Monitor weekly.
Assam,Dhubri,Medium Load,8422,0.8032533839943007,0.1967466160056993,High biometric usage among children suggests dependency on education and child welfare schemes.,Moderate biometric load observed. Recommended actions: monitor trends closely and optimize existing resources.,27.691373500473134,92.70854390670793,1.1959212356676128,10072,Normal,Stable: Monitor weekly.
Assam,Dibrugarh,Low Load,3998,0.3834417208604302,0.6165582791395697,Balanced biometric usage across age groups.,Low biometric authentication load observed. Recommended actions: maintain current infrastructure and continue monitoring.,26.054161072989025,91.92087146357501,1.1775114942710427,4707,Normal,Stable: Monitor weekly.
Assam,Dima Hasao,Low Load,6,0.3333333333333333,0.6666666666666666,Balanced biometric usage across age groups.,Low biometric authentication load observed. Recommended actions: maintain current infrastructure and continue monitoring.,27.084428646249787,93.51104667734447,1.2274425485152654,7,Normal,Stable: Monitor weekly.
Assam,Goalpara,Low Load,1451,0.4934527911784976,0.5065472088215024,High biometric usage among children suggests dependency on education and child welfare schemes.,Low biometric authentication load observed. Recommended actions: maintain current infrastructure and continue monitoring.,25.362308838366282,91.67714313684753,1.1444429850323898,1660,Normal,Stable: Monitor weekly.
Assam,Golaghat,Low Load,1595,0.509090909090909,0.4909090909090909,High biometric usage among children suggests dependency on education and child welfare schemes.,Low biometric authentication load observed. Recommended actions: maintain current infrastructure and continue monitoring.,26.74149790622414,93.39353364284341,1.0739188491876603,1712,Normal,Stable: Monitor weekly.
Assam,Hailakandi,Low Load,877,0.4583808437856328,0.5416191562143672,High biometric usage among children suggests dependency on education and child welfare schemes.,Low biometric authentication load observed. Recommended actions: maintain current infrastructure and continue monitoring.,25.51977858099463,94.28259068675123,1.192648957444599,1045,Normal,Stable: Monitor weekly.
Assam,Hojai,Low Load,2852,0.5596072931276297,0.4403927068723702,High biometric usage among children suggests dependency on education and child welfare schemes.,Low biometric authentication load observed. Recommended actions: maintain current infrastructure and continue monitoring.,25.1531736753427,92.72700440312781,1.2021570097233796,3428,Normal,Stable: Monitor weekly.
Assam,Jorhat,Low Load,1505,0.6053156146179401,0.3946843853820598,High biometric usage among children suggests dependency on education and child welfare schemes.,Low biometric authentication load observed. Recommended actions: maintain current infrastructure and continue monitoring.,27.530847760502795,92.68918195077838,1.1622554395138993,1749,Normal,Stable: Monitor weekly.
Assam,Kamrup,Medium Load,3978,0.6830065359477124,0.3169934640522875,High biometric usage among children suggests dependency on education and child welfare schemes.,Moderate biometric load observed. Recommended actions: monitor trends closely and optimize existing resources.,26.615577842992256,92.6227831938884,1.2041934359909123,4790,Normal,Stable: Monitor weekly.
Assam,Kamrup Metro,Medium Load,3501,0.560982576406741,0.439017423593259,High biometric usage among children suggests dependency on education and child welfare schemes.,Moderate biometric load observed. Recommended actions: monitor trends closely and optimize existing resources.,25.52264560704601,94.38193294387949,1.148759119272878,4021,Normal,Stable: Monitor weekly.
Assam,Karbi Anglong,Low Load,3044,0.6527595269382391,0.3472404730617608,High biometric usage among children suggests dependency on education and child welfare schemes.,Low biometric authentication load observed. Recommended actions: maintain current infrastructure and continue monitoring.,25.92800201894513,94.1122976110374,1.154546565876399,3514,Normal,Stable: Monitor weekly.
Assam,Karimganj,Low Load,1908,0.5330188679245284,0.4669811320754717,High biometric usage among children suggests dependency on education and child welfare schemes.,Low biometric authentication load observed. Recommended actions: maintain current infrastructure and continue monitoring.,25.38986381767326,92.06931411207526,1.13550820367171,2166,Normal,Stable: Monitor weekly.
Assam,Kokrajhar,Low Load,4353,0.7966919365954515,0.2033080634045486,High biometric usage among children suggests dependency on education and child welfare schemes.,Low biometric authentication load observed. Recommended actions: maintain current infrastructure and continue monitoring.,24.793402248653532,93.38500047612766,1.055083825348819,4592,Normal,Stable: Monitor weekly.
Assam,Lakhimpur,Low Load,2825,0.5207079646017699,0.47929203539823,High biometric usage among children suggests dependency on education and child welfare schemes.,Low biometric authentication load observed. Recommended actions: maintain current infrastructure and continue monitoring.,25.805579031171284,94.02307474951891,1.0715782853986608,3027,Normal,Stable: Monitor weekly.
Assam,Majuli,Low Load,446,0.773542600896861,0.226457399103139,High biometric usage among children suggests dependency on education and child welfare schemes.,Low biometric authentication load observed. Recommended actions: maintain current infrastructure and continue monitoring.,26.11962972007467,94.33458028374417,1.056285837137347,471,Normal,Stable: Monitor weekly.
Assam,Marigaon,Low Load,3525,0.6539007092198581,0.3460992907801418,High biometric usage among children suggests dependency on education and child welfare schemes.,Low biometric authentication load observed. Recommended actions: maintain current infrastructure and continue monitoring.,25.25657654710936,94.03586950386683,1.177282082252756,4149,Normal,Stable: Monitor weekly.
Assam,Nagaon,Medium Load,8439,0.3924635620334162,0.6075364379665837,Balanced biometric usage across age groups.,Moderate biometric load observed. Recommended actions: monitor trends closely and optimize existing resources.,27.029790558375225,93.74276553393216,1.1128711962152653,9391,Normal,Stable: Monitor weekly.
Assam,Nalbari,Low Load,2424,0.8494224422442245,0.1505775577557755,High biometric usage among children suggests dependency on education and child welfare schemes.,Low biometric authentication load observed. Recommended actions: maintain current infrastructure and continue monitoring.,27.23434968435066,93.713071972829,1.1517141382329406,2791,Normal,Stable: Monitor weekly.
Assam,North Cachar Hills,Low Load,250,0.48,0.52,High biometric usage among children suggests dependency on education and child welfare schemes.,Low biometric authentication load observed. Recommended actions: maintain current infrastructure and continue monitoring.,26.578660964894247,91.82373463304717,1.2315132947852185,307,Normal,Stable: Monitor weekly.
Assam,Sibsagar,Low Load,1259,0.6973788721207307,0.3026211278792692,High biometric usage among children suggests dependency on education and child welfare schemes.,Low biometric authentication load observed. Recommended actions: maintain current infrastructure and continue monitoring.,24.797578538473754,94.19254354344707,1.099858445829775,1384,Normal,Stable: Monitor weekly.
Assam,Sonitpur,Medium Load,3054,0.6087098886705959,0.391290111329404,High biometric usage among children suggests dependency on education and child welfare schemes.,Moderate biometric load observed. Recommended actions: monitor trends closely and optimize existing resources.,26.549950943562212,93.81961187292853,1.132076584607126,3457,Normal,Stable: Monitor weekly.
Assam,South Salmara Mankachar,Low Load,382,0.6518324607329843,0.3481675392670157,High biometric usage among children suggests dependency on education and child welfare schemes.,Low biometric authentication load observed. Recommended actions: maintain current infrastructure and continue monitoring.,26.14456705453765,91.78192456688718,1.2011102277086096,458,Normal,Stable: Monitor weekly.
Assam,Sribhumi,Low Load,31,0.1290322580645161,0.8709677419354839,"Adult population dominates biometric authentication, indicating strong dependency on DBT and banking services.",Low biometric authentication load observed. Recommended actions: maintain current infrastructure and continue monitoring.,25.07555737660765,93.48669586168693,1.0957596330983246,33,Normal,Stable: Monitor weekly.
Assam,Tamulpur District,Low Load,6,0.5,0.5,High biometric usage among children suggests dependency on education and child welfare schemes.,Low biometric authentication load observed. Recommended actions: maintain current infrastructure and continue monitoring.,25.99091768469839,92.03157418010102,1.0653959819657586,6,Normal,Stable: Monitor weekly.
Assam,Tinsukia,Low Load,2014,0.5719960278053625,0.4280039721946375,High biometric usage among children suggests dependency on education and child welfare schemes.,Low biometric authentication load observed. Recommended actions: maintain current infrastructure and continue monitoring.,26.17478364022431,91.62262681122542,1.1079502905827536,2231,Normal,Stable: Monitor weekly.
Assam,Udalguri,Low Load,3300,0.7096969696969697,0.2903030303030303,High biometric usage among children suggests dependency on education and child welfare schemes.,Low biometric authentication load observed. Recommended actions: maintain current infrastructure and continue monitoring.,26.445914205743197,92.2369802133053,1.0822442574508009,3571,Normal,Stable: Monitor weekly.
Assam,West Karbi Anglong,Low Load,265,0.350943396226415,0.6490566037735849,Balanced biometric usage across age groups.,Low biometric authentication load observed. Recommended actions: maintain current infrastructure and continue monitoring.,27.092677301911564,92.36108587677073,1.2359395304685146,327,Normal,Stable: Monitor weekly.
Bihar,Araria,Medium Load,27036,0.482467820683533,0.5175321793164669,High biometric usage among children suggests dependency on education and child welfare schemes.,Moderate biometric load observed. Recommended actions: monitor trends closely and optimize existing resources.,24.928792536694484,83.55183394366917,1.2116240759128833,32757,High Risk,CRITICAL: Deploy 32 additional mobile units.
Bihar,Arwal,Low Load,4742,0.3038802193167439,0.696119780683256,Balanced biometric usage across age groups.,Low biometric authentication load observed. Recommended actions: maintain current infrastructure and continue monitoring.,23.550808796060412,84.92297680306407,1.1766807513020847,5579,Normal,Stable: Monitor weekly.
Bihar,Aurangabad,Medium Load,13859,0.4402193520456021,0.5597806479543979,High biometric usage among children suggests dependency on education and child welfare schemes.,Moderate biometric load observed. Recommended actions: monitor trends closely and optimize existing resources.,25.017779804981643,85.67007397322949,1.2242921180375435,16967,High Risk,CRITICAL: Deploy 16 additional mobile units.
Bihar,Aurangabad(Bh),Low Load,22,0.2727272727272727,0.7272727272727273,"Adult population dominates biometric authentication, indicating strong dependency on DBT and banking services.",Low biometric authentication load observed. Recommended actions: maintain current infrastructure and continue monitoring.,24.339985283353492,86.01193479005556,1.210734415379823,26,Normal,Stable: Monitor weekly.
Bihar,Banka,Medium Load,14809,0.4668107232088594,0.5331892767911405,High biometric usage among children suggests dependency on education and child welfare schemes.,Moderate biometric load observed. Recommended actions: monitor trends closely and optimize existing resources.,26.386440629881136,86.31746356001607,1.087314011777207,16102,Normal,Stable: Monitor weekly.
Bihar,Begusarai,Medium Load,25387,0.5151455469334699,0.4848544530665301,High biometric usage among children suggests dependency on education and child welfare schemes.,Moderate biometric load observed. Recommended actions: monitor trends closely and optimize existing resources.,23.432627771254086,85.23982501012819,1.2285117996979955,31188,High Risk,CRITICAL: Deploy 31 additional mobile units.
Bihar,Bhabua,Low Load,10,0.1,0.9,"Adult population dominates biometric authentication, indicating strong dependency on DBT and banking services.",Low biometric authentication load observed. Recommended actions: maintain current infrastructure and continue monitoring.,23.66774864230543,84.38136205710511,1.15786844838313,11,Normal,Stable: Monitor weekly.
Bihar,Bhagalpur,Medium Load,25302,0.5274286617658683,0.4725713382341316,High biometric usage among children suggests dependency on education and child welfare schemes.,Moderate biometric load observed. Recommended actions: monitor trends closely and optimize existing resources.,26.841985335761727,84.02298395444545,1.2114880310328124,30653,High Risk,CRITICAL: Deploy 30 additional mobile units.
Bihar,Bhojpur,Medium Load,17274,0.2966886650457335,0.7033113349542666,"Adult population dominates biometric authentication, indicating strong dependency on DBT and banking services.",Moderate biometric load observed. Recommended actions: monitor trends closely and optimize existing resources.,25.085997352424883,85.73536064354523,1.2292182599846986,21233,High Risk,CRITICAL: Deploy 21 additional mobile units.
Bihar,Buxar,Medium Load,8203,0.3902230891137389,0.6097769108862611,Balanced biometric usage across age groups.,Moderate biometric load observed. Recommended actions: monitor trends closely and optimize existing resources.,25.818873893958774,85.52473526055289,1.1136006949943729,9134,Normal,Stable: Monitor weekly.
Bihar,Darbhanga,High Load,31056,0.4292890262751159,0.5707109737248841,High biometric usage among children suggests dependency on education and child welfare schemes.,"High biometric authentication pressure detected. Recommended actions: increase Aadhaar authentication infrastructure, deploy additional servers, and optimize load distribution.",23.32517505070906,84.68526070967837,1.0720103849055354,33292,High Risk,CRITICAL: Deploy 33 additional mobile units.
Bihar,East Champaran,High Load,33912,0.4077022882755367,0.5922977117244633,High biometric usage among children suggests dependency on education and child welfare schemes.,"High biometric authentication pressure detected. Recommended actions: increase Aadhaar authentication infrastructure, deploy additional servers, and optimize load distribution.",25.153761916184962,83.8263193969214,1.0955870325083883,37153,High Risk,CRITICAL: Deploy 37 additional mobile units.
Bihar,Gaya,High Load,37734,0.4369534107171251,0.5630465892828749,High biometric usage among children suggests dependency on education and child welfare schemes.,"High biometric authentication pressure detected. Recommended actions: increase Aadhaar authentication infrastructure, deploy additional servers, and optimize load distribution.",24.55225695235305,83.62953119164892,1.1354215577252513,42843,High Risk,CRITICAL: Deploy 42 additional mobile units.
Bihar,Gopalganj,Medium Load,14055,0.4590537175382426,0.5409462824617574,High biometric usage among children suggests dependency on education and child welfare schemes.,Moderate biometric load observed. Recommended actions: monitor trends closely and optimize existing resources.,23.572882589758073,84.93892379432575,1.2136029531844987,17057,High Risk,CRITICAL: Deploy 17 additional mobile units.
Bihar,Jamui,Medium Load,12667,0.5156706402463093,0.4843293597536907,High biometric usage among children suggests dependency on education and child welfare schemes.,Moderate biometric load observed. Recommended actions: monitor trends closely and optimize existing resources.,23.767776714555016,85.55314705374161,1.2221461166512686,15480,Normal,Stable: Monitor weekly.
Bihar,Jehanabad,Low Load,6442,0.3736417261719962,0.6263582738280037,Balanced biometric usage across age groups.,Low biometric authentication load observed. Recommended actions: maintain current infrastructure and continue monitoring.,25.772073888894155,86.3921121167927,1.0513904261062381,6773,Normal,Stable: Monitor weekly.
Bihar,Kaimur (Bhabua),Medium Load,13938,0.4652747883484001,0.5347252116515999,High biometric usage among children suggests dependency on education and child welfare schemes.,Moderate biometric load observed. Recommended actions: monitor trends closely and optimize existing resources.,24.010540879281315,84.11293729613266,1.1521494605155131,16058,Normal,Stable: Monitor weekly.
Bihar,Katihar,Medium Load,33639,0.4957638455364309,0.5042361544635691,High biometric usage among children suggests dependency on education and child welfare schemes.,Moderate biometric load observed. Recommended actions: monitor trends closely and optimize existing resources.,23.66644422520384,85.8011488983571,1.1334822006297558,38129,High Risk,CRITICAL: Deploy 38 additional mobile units.
Bihar,Khagaria,Medium Load,13005,0.4712033833141099,0.5287966166858901,High biometric usage among children suggests dependency on education and child welfare schemes.,Moderate biometric load observed. Recommended actions: monitor trends closely and optimize existing resources.,25.833312615352845,83.62371012137231,1.094421562094146,14232,Normal,Stable: Monitor weekly.
Bihar,Kishanganj,Medium Load,16296,0.4671084928816887,0.5328915071183112,High biometric usage among children suggests dependency on education and child welfare schemes.,Moderate biometric load observed. Recommended actions: monitor trends closely and optimize existing resources.,26.660364086477284,83.6970966211453,1.0739730734667365,17501,High Risk,CRITICAL: Deploy 17 additional mobile units.
Bihar,Lakhisarai,Low Load,7691,0.4832921596671434,0.5167078403328565,High biometric usage among children suggests dependency on education and child welfare schemes.,Low biometric authentication load observed. Recommended actions: maintain current infrastructure and continue monitoring.,25.238666807083852,86.0626178700233,1.1175230342807256,8594,Normal,Stable: Monitor weekly.
Bihar,Madhepura,Medium Load,17824,0.3568222621184919,0.6431777378815081,Balanced biometric usage across age groups.,Moderate biometric load observed. Recommended actions: monitor trends closely and optimize existing resources.,26.42548884548591,86.08071295567674,1.2385819407825038,22076,High Risk,CRITICAL: Deploy 22 additional mobile units.
Bihar,Madhubani,High Load,37884,0.4486326681448632,0.5513673318551368,High biometric usage among children suggests dependency on education and child welfare schemes.,"High biometric authentication pressure detected. Recommended actions: increase Aadhaar authentication infrastructure, deploy additional servers, and optimize load distribution.",26.17622109905125,84.7320206931541,1.114640586404151,42227,High Risk,CRITICAL: Deploy 42 additional mobile units.
Bihar,Monghyr,Low Load,10,0.0,1.0,"Adult population dominates biometric authentication, indicating strong dependency on DBT and banking services.",Low biometric authentication load observed. Recommended actions: maintain current infrastructure and continue monitoring.,26.223370409487444,83.79841344698484,1.1537581243486732,11,Normal,Stable: Monitor weekly.
Bihar,Munger,Low Load,7808,0.3972848360655737,0.6027151639344263,Balanced biometric usage across age groups.,Low biometric authentication load observed. Recommended actions: maintain current infrastructure and continue monitoring.,26.5113399618179,85.48133255415345,1.1906037917790355,9296,Normal,Stable: Monitor weekly.
Bihar,Muzaffarpur,High Load,31844,0.4292802411757317,0.5707197588242683,High biometric usage among children suggests dependency on education and child welfare schemes.,"High biometric authentication pressure detected. Recommended actions: increase Aadhaar authentication infrastructure, deploy additional servers, and optimize load distribution.",26.23227197186498,85.13834582426588,1.1227259204758588,35752,High Risk,CRITICAL: Deploy 35 additional mobile units.
Bihar,Nalanda,Medium Load,18083,0.3403749377868716,0.6596250622131283,Balanced biometric usage across age groups.,Moderate biometric load observed. Recommended actions: monitor trends closely and optimize existing resources.,25.60687970270749,85.40504957937002,1.244356416544192,22501,High Risk,CRITICAL: Deploy 22 additional mobile units.
Bihar,Nawada,Medium Load,16359,0.414511889479797,0.585488110520203,High biometric usage among children suggests dependency on education and child welfare schemes.,Moderate biometric load observed. Recommended actions: monitor trends closely and optimize existing resources.,25.923722278319193,83.80386793531012,1.2424894589884223,20325,High Risk,CRITICAL: Deploy 20 additional mobile units.
Bihar,Pashchim Champaran,Low Load,56,0.2321428571428571,0.7678571428571429,"Adult population dominates biometric authentication, indicating strong dependency on DBT and banking services.",Low biometric authentication load observed. Recommended actions: maintain current infrastructure and continue monitoring.,23.50726750236603,84.39957164243653,1.100356459165073,61,Normal,Stable: Monitor weekly.
Bihar,Patna,High Load,30195,0.3957277694982613,0.6042722305017387,Balanced biometric usage across age groups.,"High biometric authentication pressure detected. Recommended actions: increase Aadhaar authentication infrastructure, deploy additional servers, and optimize load distribution.",23.86436084840748,86.64842083973193,1.1494497011784772,34707,High Risk,CRITICAL: Deploy 34 additional mobile units.
Bihar,Purba Champaran,Low Load,33,0.2424242424242424,0.7575757575757576,"Adult population dominates biometric authentication, indicating strong dependency on DBT and banking services.",Low biometric authentication load observed. Recommended actions: maintain current infrastructure and continue monitoring.,24.07917035448896,87.02311492094887,1.110175661963354,36,Normal,Stable: Monitor weekly.
Bihar,Purnea,Low Load,628,0.2165605095541401,0.7834394904458599,"Adult population dominates biometric authentication, indicating strong dependency on DBT and banking services.",Low biometric authentication load observed. Recommended actions: maintain current infrastructure and continue monitoring.,24.502824850375983,84.16562449647932,1.1069680988754935,695,Normal,Stable: Monitor weekly.
Bihar,Purnia,Medium Load,31172,0.4351340947003721,0.5648659052996279,High biometric usage among children suggests dependency on education and child welfare schemes.,Moderate biometric load observed. Recommended actions: monitor trends closely and optimize existing resources.,26.132914625712925,85.88134799180315,1.0573773894709066,32960,High Risk,CRITICAL: Deploy 32 additional mobile units.
Bihar,Rohtas,Medium Load,16842,0.4437715235720223,0.5562284764279777,High biometric usage among children suggests dependency on education and child welfare schemes.,Moderate biometric load observed. Recommended actions: monitor trends closely and optimize existing resources.,25.0835045792313,85.50930878337547,1.1719128667959793,19737,High Risk,CRITICAL: Deploy 19 additional mobile units.
Bihar,Saharsa,Medium Load,18702,0.3353652015827184,0.6646347984172816,Balanced biometric usage across age groups.,Moderate biometric load observed. Recommended actions: monitor trends closely and optimize existing resources.,25.879126401780148,84.33243706879267,1.1505358046457723,21517,High Risk,CRITICAL: Deploy 21 additional mobile units.
Bihar,Samastipur,High Load,33157,0.4123714449437524,0.5876285550562476,High biometric usage among children suggests dependency on education and child welfare schemes.,"High biometric authentication pressure detected. Recommended actions: increase Aadhaar authentication infrastructure, deploy additional servers, and optimize load distribution.",26.87680209780427,87.01925538372842,1.060295750249998,35156,High Risk,CRITICAL: Deploy 35 additional mobile units.
Bihar,Samstipur,Low Load,33,0.0909090909090909,0.9090909090909092,"Adult population dominates biometric authentication, indicating strong dependency on DBT and banking services.",Low biometric authentication load observed. Recommended actions: maintain current infrastructure and continue monitoring.,25.631172470848973,84.22835282334492,1.1057292928473224,36,Normal,Stable: Monitor weekly.
Bihar,Saran,Medium Load,20926,0.3732199178056007,0.6267800821943993,Balanced biometric usage across age groups.,Moderate biometric load observed. Recommended actions: monitor trends closely and optimize existing resources.,25.73882167275265,83.76991427232504,1.2316531771933308,25773,High Risk,CRITICAL: Deploy 25 additional mobile units.
Bihar,Sheikhpura,Low Load,5341,0.3531173937464894,0.6468826062535106,Balanced biometric usage across age groups.,Low biometric authentication load observed. Recommended actions: maintain current infrastructure and continue monitoring.,23.400349007940903,84.43765839864037,1.0979123781333946,5863,Normal,Stable: Monitor weekly.
Bihar,Sheikpura,Low Load,6,0.0,1.0,"Adult population dominates biometric authentication, indicating strong dependency on DBT and banking services.",Low biometric authentication load observed. Recommended actions: maintain current infrastructure and continue monitoring.,24.955442644261538,86.63578101947017,1.0789789744182448,6,Normal,Stable: Monitor weekly.
Bihar,Sheohar,Low Load,5053,0.3572135365129626,0.6427864634870374,Balanced biometric usage across age groups.,Low biometric authentication load observed. Recommended actions: maintain current infrastructure and continue monitoring.,25.90780865115871,86.18374347631993,1.1478905520555127,5800,Normal,Stable: Monitor weekly.
Bihar,Sitamarhi,Medium Load,28501,0.4174239500368408,0.5825760499631591,High biometric usage among children suggests dependency on education and child welfare schemes.,Moderate biometric load observed. Recommended actions: monitor trends closely and optimize existing resources.,24.82177600401307,84.75536597316906,1.2471300908221201,35544,High Risk,CRITICAL: Deploy 35 additional mobile units.
Bihar,Siwan,Medium Load,17221,0.3928343301782707,0.6071656698217293,Balanced biometric usage across age groups.,Moderate biometric load observed. Recommended actions: monitor trends closely and optimize existing resources.,24.62573954674457,87.06553842944982,1.0984110543023,18915,High Risk,CRITICAL: Deploy 18 additional mobile units.
Bihar,Supaul,Medium Load,18544,0.3678817946505608,0.6321182053494392,Balanced biometric usage across age groups.,Moderate biometric load observed. Recommended actions: monitor trends closely and optimize existing resources.,23.434393089084935,86.63131338604082,1.1844271094811758,21964,High Risk,CRITICAL: Deploy 21 additional mobile units.
Bihar,Vaishali,Medium Load,25881,0.3749855106062362,0.6250144893937638,Balanced biometric usage across age groups.,Moderate biometric load observed. Recommended actions: monitor trends closely and optimize existing resources.,25.373231470860617,85.08901550908253,1.2023239230657436,31117,High Risk,CRITICAL: Deploy 31 additional mobile units.
Bihar,West Champaran,Medium Load,25109,0.3875502807758174,0.6124497192241826,Balanced biometric usage across age groups.,Moderate biometric load observed. Recommended actions: monitor trends closely and optimize existing resources.,25.900927577494492,85.26200818912893,1.09752750879848,27557,High Risk,CRITICAL: Deploy 27 additional mobile units.
Chandigarh,Chandigarh,Low Load,6476,0.4768375540457072,0.5231624459542927,High biometric usage among children suggests dependency on education and child welfare schemes.,Low biometric authentication load observed. Recommended actions: maintain current infrastructure and continue monitoring.,23.577385904653283,82.16561491209006,1.195643269722372,7742,Normal,Stable: Monitor weekly.
Chandigarh,Mohali,Low Load,1,0.0,1.0,"Adult population dominates biometric authentication, indicating strong dependency on DBT and banking services.",Low biometric authentication load observed. Recommended actions: maintain current infrastructure and continue monitoring.,19.963767414987643,77.17462237788041,1.1235566265438506,1,Normal,Stable: Monitor weekly.
Chandigarh,Rupnagar,Low Load,2,0.5,0.5,High biometric usage among children suggests dependency on education and child welfare schemes.,Low biometric authentication load observed. Recommended actions: maintain current infrastructure and continue monitoring.,21.3288026287469,82.25890676493353,1.1764611661187159,2,Normal,Stable: Monitor weekly.
Chhatisgarh,Raipur,Low Load,1,0.0,1.0,"Adult population dominates biometric authentication, indicating strong dependency on DBT and banking services.",Low biometric authentication load observed. Recommended actions: maintain current infrastructure and continue monitoring.,18.275297512045334,79.94373266850786,1.176705942152179,1,Normal,Stable: Monitor weekly.
Chhattisgarh,Balod,Low Load,5920,0.170777027027027,0.829222972972973,"Adult population dominates biometric authentication, indicating strong dependency on DBT and banking services.",Low biometric authentication load observed. Recommended actions: maintain current infrastructure and continue monitoring.,21.796240880370082,82.79245208966113,1.1571549368149516,6850,Normal,Stable: Monitor weekly.
Chhattisgarh,Baloda Bazar,Medium Load,6731,0.2415688604962115,0.7584311395037885,"Adult population dominates biometric authentication, indicating strong dependency on DBT and banking services.",Moderate biometric load observed. Recommended actions: monitor trends closely and optimize existing resources.,19.796270740509037,82.72329985872835,1.0680579540108817,7189,Normal,Stable: Monitor weekly.
Chhattisgarh,Balrampur,Low Load,1935,0.2697674418604651,0.7302325581395349,"Adult population dominates biometric authentication, indicating strong dependency on DBT and banking services.",Low biometric authentication load observed. Recommended actions: maintain current infrastructure and continue monitoring.,22.906130082662564,80.57873243548097,1.2170604991178475,2355,Normal,Stable: Monitor weekly.
Chhattisgarh,Bastar,Low Load,5332,0.1897974493623405,0.8102025506376594,"Adult population dominates biometric authentication, indicating strong dependency on DBT and banking services.",Low biometric authentication load observed. Recommended actions: maintain current infrastructure and continue monitoring.,20.22017329969551,83.74558037616656,1.1141560129943473,5940,Normal,Stable: Monitor weekly.
Chhattisgarh,Bemetara,Low Load,8174,0.1260092977734279,0.873990702226572,"Adult population dominates biometric authentication, indicating strong dependency on DBT and banking services.",Low biometric authentication load observed. Recommended actions: maintain current infrastructure and continue monitoring.,19.99390781083796,83.27754037347832,1.087303702079971,8887,Normal,Stable: Monitor weekly.
Chhattisgarh,Bijapur,Low Load,3196,0.454630788485607,0.545369211514393,High biometric usage among children suggests dependency on education and child welfare schemes.,Low biometric authentication load observed. Recommended actions: maintain current infrastructure and continue monitoring.,21.23911142579214,80.84892429761271,1.0581550283109529,3381,Normal,Stable: Monitor weekly.
Chhattisgarh,Bilaspur,Medium Load,12130,0.2014839241549876,0.7985160758450124,"Adult population dominates biometric authentication, indicating strong dependency on DBT and banking services.",Moderate biometric load observed. Recommended actions: monitor trends closely and optimize existing resources.,22.752999605090046,81.64122102001066,1.1681785886376483,14170,Normal,Stable: Monitor weekly.
Chhattisgarh,Dakshin Bastar Dantewada,Low Load,1719,0.2693426410703897,0.7306573589296103,"Adult population dominates biometric authentication, indicating strong dependency on DBT and banking services.",Low biometric authentication load observed. Recommended actions: maintain current infrastructure and continue monitoring.,21.32926941571876,81.29693347759907,1.1855128723684565,2037,Normal,Stable: Monitor weekly.
Chhattisgarh,Dantewada,Low Load,897,0.2519509476031215,0.7480490523968785,"Adult population dominates biometric authentication, indicating strong dependency on DBT and banking services.",Low biometric authentication load observed. Recommended actions: maintain current infrastructure and continue monitoring.,21.641803405739708,80.5140954903401,1.0533175657855713,944,Normal,Stable: Monitor weekly.
Chhattisgarh,Dhamtari,Low Load,6771,0.1177078718062324,0.8822921281937676,"Adult population dominates biometric authentication, indicating strong dependency on DBT and banking services.",Low biometric authentication load observed. Recommended actions: maintain current infrastructure and continue monitoring.,20.834326146607044,83.73764928934115,1.1524186116598563,7803,Normal,Stable: Monitor weekly.
Chhattisgarh,Durg,Medium Load,13443,0.1916238934761586,0.8083761065238414,"Adult population dominates biometric authentication, indicating strong dependency on DBT and banking services.",Moderate biometric load observed. Recommended actions: monitor trends closely and optimize existing resources.,20.30253373080451,82.48694665816517,1.0952991550395876,14724,Normal,Stable: Monitor weekly.
Chhattisgarh,Gariyaband,Low Load,2421,0.2139611730689797,0.7860388269310202,"Adult population dominates biometric authentication, indicating strong dependency on DBT and banking services.",Low biometric authentication load observed. Recommended actions: maintain current infrastructure and continue monitoring.,20.57076025689878,82.9538925027464,1.17903455808189,2854,Normal,Stable: Monitor weekly.
Chhattisgarh,Gaurela-Pendra-Marwahi,Low Load,362,0.1160220994475138,0.8839779005524862,"Adult population dominates biometric authentication, indicating strong dependency on DBT and banking services.",Low biometric authentication load observed. Recommended actions: maintain current infrastructure and continue monitoring.,19.793494642873398,83.73928418031417,1.0848732858009984,392,Normal,Stable: Monitor weekly.
Chhattisgarh,Janjgir - Champa,Low Load,15,0.0666666666666666,0.9333333333333332,"Adult population dominates biometric authentication, indicating strong dependency on DBT and banking services.",Low biometric authentication load observed. Recommended actions: maintain current infrastructure and continue monitoring.,21.08515816553456,80.80420185338585,1.1881875476204933,17,Normal,Stable: Monitor weekly.
Chhattisgarh,Janjgir Champa,Low Load,21,0.0476190476190476,0.9523809523809524,"Adult population dominates biometric authentication, indicating strong dependency on DBT and banking services.",Low biometric authentication load observed. Recommended actions: maintain current infrastructure and continue monitoring.,19.56398698932005,80.53903162035016,1.1273470692601075,23,Normal,Stable: Monitor weekly.
Chhattisgarh,Janjgir-Champa,Medium Load,12892,0.2120695004654049,0.7879304995345952,"Adult population dominates biometric authentication, indicating strong dependency on DBT and banking services.",Moderate biometric load observed. Recommended actions: monitor trends closely and optimize existing resources.,21.34909579422407,81.20801270572514,1.2373459977473469,15951,Normal,Stable: Monitor weekly.
Chhattisgarh,Jashpur,Low Load,4403,0.1896434249375425,0.8103565750624574,"Adult population dominates biometric authentication, indicating strong dependency on DBT and banking services.",Low biometric authentication load observed. Recommended actions: maintain current infrastructure and continue monitoring.,22.58553346353044,81.58355009464722,1.0775041888291987,4744,Normal,Stable: Monitor weekly.
Chhattisgarh,Kabeerdham,Low Load,1695,0.2471976401179941,0.752802359882006,"Adult population dominates biometric authentication, indicating strong dependency on DBT and banking services.",Low biometric authentication load observed. Recommended actions: maintain current infrastructure and continue monitoring.,20.264857090350517,82.32857994641611,1.1182132702100518,1895,Normal,Stable: Monitor weekly.
Chhattisgarh,Kanker,Low Load,3103,0.1814373187238156,0.8185626812761844,"Adult population dominates biometric authentication, indicating strong dependency on DBT and banking services.",Low biometric authentication load observed. Recommended actions: maintain current infrastructure and continue monitoring.,22.097108867541785,80.5281676316038,1.0726947042481179,3328,Normal,Stable: Monitor weekly.
Chhattisgarh,Kawardha,Low Load,4076,0.1746810598626104,0.8253189401373896,"Adult population dominates biometric authentication, indicating strong dependency on DBT and banking services.",Low biometric authentication load observed. Recommended actions: maintain current infrastructure and continue monitoring.,19.940476865153272,80.00668570773418,1.2349387236557126,5033,Normal,Stable: Monitor weekly.
Chhattisgarh,Khairagarh Chhuikhadan Gandai,Low Load,450,0.0911111111111111,0.9088888888888887,"Adult population dominates biometric authentication, indicating strong dependency on DBT and banking services.",Low biometric authentication load observed. Recommended actions: maintain current infrastructure and continue monitoring.,22.21560806026256,82.51521811048723,1.2254678706761961,551,Normal,Stable: Monitor weekly.
Chhattisgarh,Kondagaon,Low Load,2760,0.1797101449275362,0.8202898550724638,"Adult population dominates biometric authentication, indicating strong dependency on DBT and banking services.",Low biometric authentication load observed. Recommended actions: maintain current infrastructure and continue monitoring.,21.168523502999257,83.23668179587679,1.1015883255430312,3040,Normal,Stable: Monitor weekly.
Chhattisgarh,Korba,Medium Load,12543,0.4567487841824125,0.5432512158175875,High biometric usage among children suggests dependency on education and child welfare schemes.,Moderate biometric load observed. Recommended actions: monitor trends closely and optimize existing resources.,22.49268061180021,82.20141745758701,1.1819968092068358,14825,Normal,Stable: Monitor weekly.
Chhattisgarh,Koriya,Low Load,4265,0.2067995310668229,0.793200468933177,"Adult population dominates biometric authentication, indicating strong dependency on DBT and banking services.",Low biometric authentication load observed. Recommended actions: maintain current infrastructure and continue monitoring.,22.743085122053035,80.68336484014708,1.213444440040243,5175,Normal,Stable: Monitor weekly.
Chhattisgarh,Mahasamund,Low Load,6985,0.180100214745884,0.819899785254116,"Adult population dominates biometric authentication, indicating strong dependency on DBT and banking services.",Low biometric authentication load observed. Recommended actions: maintain current infrastructure and continue monitoring.,19.717678477590912,80.93899844606796,1.1610401623198925,8109,Normal,Stable: Monitor weekly.
Chhattisgarh,Manendragarhchirmiribharatpur,Low Load,133,0.112781954887218,0.8872180451127819,"Adult population dominates biometric authentication, indicating strong dependency on DBT and banking services.",Low biometric authentication load observed. Recommended actions: maintain current infrastructure and continue monitoring.,19.49834742435726,81.98467811200413,1.1559301156712014,153,Normal,Stable: Monitor weekly.
Chhattisgarh,Manendragarh–Chirmiri–Bharatpur,Low Load,26,0.1538461538461538,0.8461538461538461,"Adult population dominates biometric authentication, indicating strong dependency on DBT and banking services.",Low biometric authentication load observed. Recommended actions: maintain current infrastructure and continue monitoring.,23.016422769179847,80.01737416267403,1.0983704581800904,28,Normal,Stable: Monitor weekly.
Chhattisgarh,Mohalla-Manpur-Ambagarh Chowki,Low Load,5,0.0,1.0,"Adult population dominates biometric authentication, indicating strong dependency on DBT and banking services.",Low biometric authentication load observed. Recommended actions: maintain current infrastructure and continue monitoring.,19.758439656040107,81.66879611313374,1.06862055356118,5,Normal,Stable: Monitor weekly.
Chhattisgarh,Mohla-Manpur-Ambagarh Chouki,Low Load,648,0.1342592592592592,0.8657407407407407,"Adult population dominates biometric authentication, indicating strong dependency on DBT and banking services.",Low biometric authentication load observed. Recommended actions: maintain current infrastructure and continue monitoring.,23.00550007011162,81.12462441990701,1.2294431515906654,796,Normal,Stable: Monitor weekly.
Chhattisgarh,Mungeli,Low Load,3490,0.2724928366762177,0.7275071633237822,"Adult population dominates biometric authentication, indicating strong dependency on DBT and banking services.",Low biometric authentication load observed. Recommended actions: maintain current infrastructure and continue monitoring.,21.29893923475357,80.02629143620157,1.230083611432666,4292,Normal,Stable: Monitor weekly.
Chhattisgarh,Narayanpur,Low Load,2050,0.2463414634146341,0.7536585365853659,"Adult population dominates biometric authentication, indicating strong dependency on DBT and banking services.",Low biometric authentication load observed. Recommended actions: maintain current infrastructure and continue monitoring.,19.863372803848357,83.80652049183539,1.1766202914546535,2412,Normal,Stable: Monitor weekly.
Chhattisgarh,Raigarh,Medium Load,9715,0.2321152856407617,0.7678847143592383,"Adult population dominates biometric authentication, indicating strong dependency on DBT and banking services.",Moderate biometric load observed. Recommended actions: monitor trends closely and optimize existing resources.,23.13047478574418,79.87975992373764,1.1178059582097402,10859,Normal,Stable: Monitor weekly.
Chhattisgarh,Raipur,Medium Load,12829,0.2198144828123782,0.7801855171876217,"Adult population dominates biometric authentication, indicating strong dependency on DBT and banking services.",Moderate biometric load observed. Recommended actions: monitor trends closely and optimize existing resources.,23.077247141692954,82.416479751262,1.1198419149225323,14366,Normal,Stable: Monitor weekly.
Chhattisgarh,Rajnandgaon,Medium Load,11077,0.1404712467274532,0.8595287532725467,"Adult population dominates biometric authentication, indicating strong dependency on DBT and banking services.",Moderate biometric load observed. Recommended actions: monitor trends closely and optimize existing resources.,22.741673178080088,81.67895942253544,1.195191135774048,13239,Normal,Stable: Monitor weekly.
Chhattisgarh,Sakti,Low Load,913,0.1215772179627601,0.8784227820372399,"Adult population dominates biometric authentication, indicating strong dependency on DBT and banking services.",Low biometric authentication load observed. Recommended actions: maintain current infrastructure and continue monitoring.,21.332384114317,81.81538632102767,1.2294220519905155,1122,Normal,Stable: Monitor weekly.
Chhattisgarh,Sarangarh-Bilaigarh,Low Load,24,0.0,1.0,"Adult population dominates biometric authentication, indicating strong dependency on DBT and banking services.",Low biometric authentication load observed. Recommended actions: maintain current infrastructure and continue monitoring.,21.93745703018442,80.41860501902525,1.2274172848530234,29,Normal,Stable: Monitor weekly.
Chhattisgarh,Sukma,Low Load,1432,0.2779329608938548,0.7220670391061452,"Adult population dominates biometric authentication, indicating strong dependency on DBT and banking services.",Low biometric authentication load observed. Recommended actions: maintain current infrastructure and continue monitoring.,19.38989435949071,81.09171976636476,1.2059751091715247,1726,Normal,Stable: Monitor weekly.
Chhattisgarh,Surajpur,Low Load,5189,0.1451146656388514,0.8548853343611486,"Adult population dominates biometric authentication, indicating strong dependency on DBT and banking services.",Low biometric authentication load observed. Recommended actions: maintain current infrastructure and continue monitoring.,22.088723050946587,80.66741380849179,1.1784063292308575,6114,Normal,Stable: Monitor weekly.
Chhattisgarh,Surguja,Low Load,4986,0.2015643802647412,0.7984356197352587,"Adult population dominates biometric authentication, indicating strong dependency on DBT and banking services.",Low biometric authentication load observed. Recommended actions: maintain current infrastructure and continue monitoring.,21.96372973329967,83.73964818442909,1.0668279929990099,5319,Normal,Stable: Monitor weekly.
Chhattisgarh,Uttar Bastar Kanker,Low Load,2097,0.1134954697186456,0.8865045302813543,"Adult population dominates biometric authentication, indicating strong dependency on DBT and banking services.",Low biometric authentication load observed. Recommended actions: maintain current infrastructure and continue monitoring.,19.645602863157674,82.5504084729005,1.0823257428189228,2269,Normal,Stable: Monitor weekly.
Dadra & Nagar Haveli,Dadra & Nagar Haveli,Low Load,142,0.0985915492957746,0.9014084507042254,"Adult population dominates biometric authentication, indicating strong dependency on DBT and banking services.",Low biometric authentication load observed. Recommended actions: maintain current infrastructure and continue monitoring.,20.140001754436568,81.90513803502003,1.2297108377054158,174,Normal,Stable: Monitor weekly.
Dadra And Nagar Haveli,Dadra And Nagar Haveli,Low Load,3200,0.29125,0.70875,"Adult population dominates biometric authentication, indicating strong dependency on DBT and banking services.",Low biometric authentication load observed. Recommended actions: maintain current infrastructure and continue monitoring.,18.00719831557909,80.50100761780931,1.171285811931918,3748,Normal,Stable: Monitor weekly.
Dadra And Nagar Haveli And Daman And Diu,Dadra And Nagar Haveli,Low Load,388,0.2551546391752577,0.7448453608247423,"Adult population dominates biometric authentication, indicating strong dependency on DBT and banking services.",Low biometric authentication load observed. Recommended actions: maintain current infrastructure and continue monitoring.,23.29492231718488,82.51691375579217,1.051839410323326,408,Normal,Stable: Monitor weekly.
Dadra And Nagar Haveli And Daman And Diu,Daman,Low Load,75,0.28,0.72,"Adult population dominates biometric authentication, indicating strong dependency on DBT and banking services.",Low biometric authentication load observed. Recommended actions: maintain current infrastructure and continue monitoring.,22.055984226317165,78.93739811206741,1.0702943085732064,80,Normal,Stable: Monitor weekly.
Dadra And Nagar Haveli And Daman And Diu,Diu,Low Load,3,0.3333333333333333,0.6666666666666666,Balanced biometric usage across age groups.,Low biometric authentication load observed. Recommended actions: maintain current infrastructure and continue monitoring.,21.53277792160971,81.91123987582974,1.1827003538216112,3,Normal,Stable: Monitor weekly.
Daman & Diu,Daman,Low Load,304,0.2401315789473684,0.7598684210526315,"Adult population dominates biometric authentication, indicating strong dependency on DBT and banking services.",Low biometric authentication load observed. Recommended actions: maintain current infrastructure and continue monitoring.,21.154877973110636,75.20309647757469,1.0510123167692438,319,Normal,Stable: Monitor weekly.
Daman & Diu,Diu,Low Load,183,0.2677595628415301,0.73224043715847,"Adult population dominates biometric authentication, indicating strong dependency on DBT and banking services.",Low biometric authentication load observed. Recommended actions: maintain current infrastructure and continue monitoring.,24.03758956405582,80.47621400825248,1.0821616102834997,198,Normal,Stable: Monitor weekly.
Daman And Diu,Daman,Low Load,566,0.5812720848056537,0.4187279151943462,High biometric usage among children suggests dependency on education and child welfare schemes.,Low biometric authentication load observed. Recommended actions: maintain current infrastructure and continue monitoring.,22.002107086217972,76.68540121918173,1.1597467578733172,656,Normal,Stable: Monitor weekly.
Daman And Diu,Diu,Low Load,356,0.6573033707865169,0.3426966292134831,High biometric usage among children suggests dependency on education and child welfare schemes.,Low biometric authentication load observed. Recommended actions: maintain current infrastructure and continue monitoring.,21.86108376186126,78.11091524523326,1.1883790395385387,423,Normal,Stable: Monitor weekly.
Delhi,Central Delhi,Low Load,6106,0.3766786767114314,0.6233213232885686,Balanced biometric usage across age groups.,Low biometric authentication load observed. Recommended actions: maintain current infrastructure and continue monitoring.,28.760493190816597,76.94263721212319,1.18039225190052,7207,Normal,Stable: Monitor weekly.
Delhi,East Delhi,Medium Load,13137,0.3732206744309964,0.6267793255690036,Balanced biometric usage across age groups.,Moderate biometric load observed. Recommended actions: monitor trends closely and optimize existing resources.,28.763138121841212,77.29976549030826,1.094853861892112,14383,Normal,Stable: Monitor weekly.
Delhi,Najafgarh,Low Load,195,0.0615384615384615,0.9384615384615383,"Adult population dominates biometric authentication, indicating strong dependency on DBT and banking services.",Low biometric authentication load observed. Recommended actions: maintain current infrastructure and continue monitoring.,28.51928481554422,77.29086967368852,1.192435844269507,232,Normal,Stable: Monitor weekly.
Delhi,New Delhi,Low Load,688,0.5712209302325582,0.4287790697674418,High biometric usage among children suggests dependency on education and child welfare schemes.,Low biometric authentication load observed. Recommended actions: maintain current infrastructure and continue monitoring.,28.662763184289147,77.2483013801349,1.09744981749936,755,Normal,Stable: Monitor weekly.
Delhi,North Delhi,Low Load,7093,0.3665585788805865,0.6334414211194135,Balanced biometric usage across age groups.,Low biometric authentication load observed. Recommended actions: maintain current infrastructure and continue monitoring.,28.81295419362331,77.12680650439466,1.1150799396318536,7909,Normal,Stable: Monitor weekly.
Delhi,North East,Low Load,4659,0.0510839235887529,0.9489160764112472,"Adult population dominates biometric authentication, indicating strong dependency on DBT and banking services.",Low biometric authentication load observed. Recommended actions: maintain current infrastructure and continue monitoring.,28.79537968370053,77.25140622452054,1.1992982810236048,5587,Normal,Stable: Monitor weekly.
Delhi,North East Delhi,Medium Load,13731,0.5176607676061467,0.4823392323938533,High biometric usage among children suggests dependency on education and child welfare schemes.,Moderate biometric load observed. Recommended actions: monitor trends closely and optimize existing resources.,28.66165612866041,77.0308132646253,1.179926579809443,16201,Normal,Stable: Monitor weekly.
Delhi,North West Delhi,High Load,44989,0.3494632021160728,0.6505367978839272,Balanced biometric usage across age groups.,"High biometric authentication pressure detected. Recommended actions: increase Aadhaar authentication infrastructure, deploy additional servers, and optimize load distribution.",28.767037354225433,77.2231383767765,1.2198446820988356,54879,High Risk,CRITICAL: Deploy 54 additional mobile units.
Delhi,Shahdara,Low Load,992,0.2731854838709677,0.7268145161290323,"Adult population dominates biometric authentication, indicating strong dependency on DBT and banking services.",Low biometric authentication load observed. Recommended actions: maintain current infrastructure and continue monitoring.,28.804914053910647,77.21912545954345,1.1815225784600687,1172,Normal,Stable: Monitor weekly.
Delhi,South Delhi,Medium Load,28354,0.4019186005501869,0.5980813994498131,High biometric usage among children suggests dependency on education and child welfare schemes.,Moderate biometric load observed. Recommended actions: monitor trends closely and optimize existing resources.,28.674233325925172,77.22713368647,1.1636617206670943,32994,High Risk,CRITICAL: Deploy 32 additional mobile units.
Delhi,South East Delhi,Low Load,59,0.3220338983050847,0.6779661016949152,Balanced biometric usage across age groups.,Low biometric authentication load observed. Recommended actions: maintain current infrastructure and continue monitoring.,28.548083622148244,77.11779563918434,1.0687349535656185,63,Normal,Stable: Monitor weekly.
Delhi,South West Delhi,Medium Load,20477,0.4220833129853006,0.5779166870146994,High biometric usage among children suggests dependency on education and child welfare schemes.,Moderate biometric load observed. Recommended actions: monitor trends closely and optimize existing resources.,28.502303464199247,77.0298343319601,1.1235431606118866,23006,High Risk,CRITICAL: Deploy 23 additional mobile units.
Delhi,West Delhi,Medium Load,24280,0.3556425041186161,0.6443574958813838,Balanced biometric usage across age groups.,Moderate biometric load observed. Recommended actions: monitor trends closely and optimize existing resources.,28.64658461394856,77.0584690766437,1.103040473536345,26781,High Risk,CRITICAL: Deploy 26 additional mobile units.
Goa,Bardez,Low Load,10,0.2,0.8,"Adult population dominates biometric authentication, indicating strong dependency on DBT and banking services.",Low biometric authentication load observed. Recommended actions: maintain current infrastructure and continue monitoring.,15.329093441337971,74.09771162025407,1.0987979286758167,10,Normal,Stable: Monitor weekly.
Goa,North Goa,Medium Load,4689,0.4261036468330134,0.5738963531669866,High biometric usage among children suggests dependency on education and child welfare schemes.,Moderate biometric load observed. Recommended actions: monitor trends closely and optimize existing resources.,15.279738724524504,74.06750882617487,1.2446021109504892,5835,Normal,Stable: Monitor weekly.
Goa,South Goa,Medium Load,4603,0.4736041711927004,0.5263958288072996,High biometric usage among children suggests dependency on education and child welfare schemes.,Moderate biometric load observed. Recommended actions: monitor trends closely and optimize existing resources.,15.264650358325866,74.06545392545263,1.128619544933352,5195,Normal,Stable: Monitor weekly.
Goa,Tiswadi,Low Load,2,0.0,1.0,"Adult population dominates biometric authentication, indicating strong dependency on DBT and banking services.",Low biometric authentication load observed. Recommended actions: maintain current infrastructure and continue monitoring.,15.204639184753688,74.14068971867628,1.2284093110354226,2,Normal,Stable: Monitor weekly.
Gujarat,Ahmadabad,Medium Load,2879,0.0628690517540812,0.9371309482459188,"Adult population dominates biometric authentication, indicating strong dependency on DBT and banking services.",Moderate biometric load observed. Recommended actions: monitor trends closely and optimize existing resources.,22.990136313642072,71.7157575224423,1.1762277251994526,3386,Normal,Stable: Monitor weekly.
Gujarat,Ahmedabad,High Load,48493,0.3951291939042748,0.6048708060957252,Balanced biometric usage across age groups.,"High biometric authentication pressure detected. Recommended actions: increase Aadhaar authentication infrastructure, deploy additional servers, and optimize load distribution.",22.08937379272252,70.66105743278861,1.2089622607083297,58626,High Risk,CRITICAL: Deploy 58 additional mobile units.
Gujarat,Amreli,Medium Load,7374,0.4745050176295091,0.5254949823704909,High biometric usage among children suggests dependency on education and child welfare schemes.,Moderate biometric load observed. Recommended actions: monitor trends closely and optimize existing resources.,23.848668058116033,71.27395985459935,1.1505274186210384,8483,Normal,Stable: Monitor weekly.
Gujarat,Anand,Medium Load,14195,0.4062698133145473,0.5937301866854526,High biometric usage among children suggests dependency on education and child welfare schemes.,Moderate biometric load observed. Recommended actions: monitor trends closely and optimize existing resources.,22.158400261570815,69.10282508954832,1.1653807769252718,16542,High Risk,CRITICAL: Deploy 16 additional mobile units.
Gujarat,Arvalli,Low Load,2705,0.5900184842883549,0.4099815157116451,High biometric usage among children suggests dependency on education and child welfare schemes.,Low biometric authentication load observed. Recommended actions: maintain current infrastructure and continue monitoring.,21.55149044155509,70.66286072265777,1.1485035387637728,3106,Normal,Stable: Monitor weekly.
Gujarat,Banas Kantha,Low Load,136,0.1397058823529411,0.8602941176470589,"Adult population dominates biometric authentication, indicating strong dependency on DBT and banking services.",Low biometric authentication load observed. Recommended actions: maintain current infrastructure and continue monitoring.,21.804820235946362,71.54275842460027,1.089048597559609,148,Normal,Stable: Monitor weekly.
Gujarat,Banaskantha,Medium Load,18705,0.4471531676022454,0.5528468323977546,High biometric usage among children suggests dependency on education and child welfare schemes.,Moderate biometric load observed. Recommended actions: monitor trends closely and optimize existing resources.,22.397851205598265,71.66478240829116,1.194490423052301,22342,High Risk,CRITICAL: Deploy 22 additional mobile units.
Gujarat,Bharuch,Medium Load,9996,0.4789915966386555,0.5210084033613446,High biometric usage among children suggests dependency on education and child welfare schemes.,Moderate biometric load observed. Recommended actions: monitor trends closely and optimize existing resources.,23.415486350785365,72.56713725035081,1.1061544724881711,11057,Normal,Stable: Monitor weekly.
Gujarat,Bhavnagar,Medium Load,18071,0.4323501743124343,0.5676498256875657,High biometric usage among children suggests dependency on education and child welfare schemes.,Moderate biometric load observed. Recommended actions: monitor trends closely and optimize existing resources.,23.209741535396574,73.19430426220171,1.0548631932862909,19062,High Risk,CRITICAL: Deploy 19 additional mobile units.
Gujarat,Botad,Low Load,2213,0.6190691369182105,0.3809308630817894,High biometric usage among children suggests dependency on education and child welfare schemes.,Low biometric authentication load observed. Recommended actions: maintain current infrastructure and continue monitoring.,20.13022336377599,69.8514231370076,1.1790944591814336,2609,Normal,Stable: Monitor weekly.
Gujarat,Chhotaudepur,Low Load,3373,0.4633857100504002,0.5366142899495998,High biometric usage among children suggests dependency on education and child welfare schemes.,Low biometric authentication load observed. Recommended actions: maintain current infrastructure and continue monitoring.,20.083276649903826,71.83888874228025,1.0854221358814098,3661,Normal,Stable: Monitor weekly.
Gujarat,Dahod,Medium Load,14191,0.4603622013952505,0.5396377986047495,High biometric usage among children suggests dependency on education and child welfare schemes.,Moderate biometric load observed. Recommended actions: monitor trends closely and optimize existing resources.,24.001334415379944,70.06132210493571,1.238091716870583,17569,High Risk,CRITICAL: Deploy 17 additional mobile units.
Gujarat,Devbhumi Dwarka,Low Load,2829,0.6595970307529162,0.3404029692470838,High biometric usage among children suggests dependency on education and child welfare schemes.,Low biometric authentication load observed. Recommended actions: maintain current infrastructure and continue monitoring.,24.128951997103748,69.25517651727407,1.2407857154005175,3510,Normal,Stable: Monitor weekly.
Gujarat,Dohad,Low Load,2103,0.10603899191631,0.89396100808369,"Adult population dominates biometric authentication, indicating strong dependency on DBT and banking services.",Low biometric authentication load observed. Recommended actions: maintain current infrastructure and continue monitoring.,24.161518517944263,70.53713982385439,1.2329728780440896,2592,Normal,Stable: Monitor weekly.
Gujarat,Gandhinagar,Medium Load,10217,0.4196926690809435,0.5803073309190565,High biometric usage among children suggests dependency on education and child welfare schemes.,Moderate biometric load observed. Recommended actions: monitor trends closely and optimize existing resources.,20.496251645176553,71.12783574041983,1.1240317400510889,11484,Normal,Stable: Monitor weekly.
Gujarat,Gir Somnath,Low Load,4283,0.6014475834695308,0.3985524165304693,High biometric usage among children suggests dependency on education and child welfare schemes.,Low biometric authentication load observed. Recommended actions: maintain current infrastructure and continue monitoring.,21.179816897970234,70.24344076863245,1.0530913233057735,4510,Normal,Stable: Monitor weekly.
Gujarat,Jamnagar,Medium Load,10148,0.4749704375246354,0.5250295624753646,High biometric usage among children suggests dependency on education and child welfare schemes.,Moderate biometric load observed. Recommended actions: monitor trends closely and optimize existing resources.,21.40207584567566,72.52331395046372,1.2356637125175451,12539,Normal,Stable: Monitor weekly.
Gujarat,Junagadh,Medium Load,12035,0.2938928126298296,0.7061071873701703,"Adult population dominates biometric authentication, indicating strong dependency on DBT and banking services.",Moderate biometric load observed. Recommended actions: monitor trends closely and optimize existing resources.,22.42230961737112,70.35975387628642,1.135636829663463,13667,Normal,Stable: Monitor weekly.
Gujarat,Kachchh,Medium Load,16311,0.5759303537490037,0.4240696462509962,High biometric usage among children suggests dependency on education and child welfare schemes.,Moderate biometric load observed. Recommended actions: monitor trends closely and optimize existing resources.,22.73546864656804,72.14106296658206,1.243330963808734,20279,High Risk,CRITICAL: Deploy 20 additional mobile units.
Gujarat,Kheda,Medium Load,17020,0.4079318448883666,0.5920681551116334,High biometric usage among children suggests dependency on education and child welfare schemes.,Moderate biometric load observed. Recommended actions: monitor trends closely and optimize existing resources.,21.24954560322755,70.80961604671154,1.2427239954178506,21151,High Risk,CRITICAL: Deploy 21 additional mobile units.
Gujarat,Mahesana,Medium Load,12894,0.3951450286955173,0.6048549713044827,Balanced biometric usage across age groups.,Moderate biometric load observed. Recommended actions: monitor trends closely and optimize existing resources.,20.586298810682568,69.78705713795259,1.220601891093472,15738,Normal,Stable: Monitor weekly.
Gujarat,Mahisagar,Low Load,3808,0.5252100840336135,0.4747899159663865,High biometric usage among children suggests dependency on education and child welfare schemes.,Low biometric authentication load observed. Recommended actions: maintain current infrastructure and continue monitoring.,23.046918557445924,69.78832872986075,1.1088897784139171,4222,Normal,Stable: Monitor weekly.
Gujarat,Morbi,Low Load,3533,0.631191621851118,0.3688083781488819,High biometric usage among children suggests dependency on education and child welfare schemes.,Low biometric authentication load observed. Recommended actions: maintain current infrastructure and continue monitoring.,22.360718888135064,72.10980355157871,1.127019545720385,3981,Normal,Stable: Monitor weekly.
Gujarat,Narmada,Low Load,6616,0.3056227327690447,0.6943772672309553,Balanced biometric usage across age groups.,Low biometric authentication load observed. Recommended actions: maintain current infrastructure and continue monitoring.,20.520258461616873,71.48617376636717,1.2202273343033714,8073,Normal,Stable: Monitor weekly.
Gujarat,Navsari,Medium Load,5196,0.4693995381062356,0.5306004618937644,High biometric usage among children suggests dependency on education and child welfare schemes.,Moderate biometric load observed. Recommended actions: monitor trends closely and optimize existing resources.,21.178876248286002,73.22687825104535,1.1133844010312555,5785,Normal,Stable: Monitor weekly.
Gujarat,Panch Mahals,Low Load,23,0.1739130434782608,0.8260869565217391,"Adult population dominates biometric authentication, indicating strong dependency on DBT and banking services.",Low biometric authentication load observed. Recommended actions: maintain current infrastructure and continue monitoring.,22.177600845567667,72.5363672190107,1.0838985493372186,24,Normal,Stable: Monitor weekly.
Gujarat,Panchmahals,Medium Load,13044,0.2877184912603496,0.7122815087396505,"Adult population dominates biometric authentication, indicating strong dependency on DBT and banking services.",Moderate biometric load observed. Recommended actions: monitor trends closely and optimize existing resources.,22.47099678548755,69.1810151445612,1.16136025249167,15148,Normal,Stable: Monitor weekly.
Gujarat,Patan,Medium Load,7931,0.3961669398562602,0.6038330601437397,Balanced biometric usage across age groups.,Moderate biometric load observed. Recommended actions: monitor trends closely and optimize existing resources.,22.8358660526137,73.17617470570929,1.2372309548321563,9812,Normal,Stable: Monitor weekly.
Gujarat,Porbandar,Low Load,4071,0.4392041267501842,0.5607958732498157,High biometric usage among children suggests dependency on education and child welfare schemes.,Low biometric authentication load observed. Recommended actions: maintain current infrastructure and continue monitoring.,22.697092008643857,72.59443098147787,1.1892059593349946,4841,Normal,Stable: Monitor weekly.
